City_ID,City,Lat,Lng,Max Temp,Humidity,Cloudiness,Wind Speed,Country,Weather Description
0,Hermanus,-34.4187,19.2345,52.81,73,97,4.27,ZA,overcast clouds
1,Kapaa,22.0752,-159.319,84.18,71,75,14.97,US,broken clouds
2,Dunedin,-45.8742,170.5036,38.34,85,100,20.51,NZ,overcast clouds
3,Gat,31.61,34.7642,74.39,100,0,0.6,IL,clear sky
4,Povenets,62.8487,34.8262,45.77,95,100,6.55,RU,overcast clouds
5,Punta Arenas,-53.15,-70.9167,46.51,71,75,11.5,CL,broken clouds
6,Butaritari,3.0707,172.7902,81.88,75,30,18.14,KI,light rain
7,Te Anau,-45.4167,167.7167,38.98,75,75,10.49,NZ,broken clouds
8,Bhag,29.0415,67.8239,83.37,37,0,4.25,PK,clear sky
9,Bandarbeyla,9.4942,50.8122,76.05,86,100,19.33,SO,overcast clouds
10,Champerico,14.3,-91.9167,82.94,75,100,6.26,GT,overcast clouds
11,Ladario,-19.0047,-57.6017,80.76,51,0,2.71,BR,clear sky
12,Atuona,-9.8,-139.0333,77.09,67,73,21.36,PF,broken clouds
13,Chuy,-33.6971,-53.4616,53.29,88,0,6.02,UY,clear sky
14,East London,-33.0153,27.9116,63.27,81,100,12.57,ZA,overcast clouds
15,Vaini,-21.2,-175.2,78.96,83,75,8.05,TO,broken clouds
16,Primorsk,46.7348,36.3443,53.28,59,0,4.85,UA,clear sky
17,Ponta Do Sol,32.6667,-17.1,71.71,72,40,1.99,PT,scattered clouds
18,Ilulissat,69.2167,-51.1,30.22,59,18,6.91,GL,few clouds
19,Lavrentiya,65.5833,-171.0,37.85,70,7,7.4,RU,clear sky
20,Hilo,19.7297,-155.09,85.73,69,0,9.22,US,clear sky
21,Codrington,-38.2667,141.9667,51.73,95,100,17.43,AU,light rain
22,Santa Cruz,-17.8,-63.1667,80.06,69,73,10.36,BO,broken clouds
23,North Bend,43.4065,-124.2243,62.92,90,100,0.0,US,overcast clouds
24,Sudogda,55.9539,40.8629,49.93,85,100,7.63,RU,overcast clouds
25,Altay,47.8667,88.1167,39.15,32,0,5.68,CN,clear sky
26,Cape Town,-33.9258,18.4232,59.38,64,0,2.3,ZA,clear sky
27,Gamba,-2.65,10.0,74.66,85,96,4.63,GA,overcast clouds
28,Klaksvik,62.2266,-6.589,50.92,82,0,37.18,FO,clear sky
29,Mataura,-46.1927,168.8643,39.47,98,100,11.68,NZ,light rain
30,Busselton,-33.65,115.3333,58.26,69,33,17.36,AU,scattered clouds
31,Oyo,7.85,3.9333,71.29,98,100,3.71,NG,overcast clouds
32,Ushuaia,-54.8,-68.3,44.26,87,75,11.5,AR,moderate rain
33,Kaitangata,-46.2817,169.8464,38.01,90,100,19.15,NZ,overcast clouds
34,Narsaq,60.9167,-46.05,41.22,93,100,6.51,GL,light rain
35,Dikson,73.5069,80.5464,32.95,78,100,20.11,RU,overcast clouds
36,Kahului,20.8947,-156.47,84.22,77,75,19.57,US,light rain
37,Kaeo,-35.1,173.7833,67.32,64,100,12.01,NZ,light rain
38,Sao Filipe,14.8961,-24.4956,78.04,78,82,1.83,CV,broken clouds
39,Sao Lourenco Do Sul,-31.3653,-51.9783,56.79,87,0,7.0,BR,clear sky
40,Shatrovo,56.5167,64.6333,43.34,51,100,8.48,RU,overcast clouds
41,Tuktoyaktuk,69.4541,-133.0374,33.8,86,20,10.36,CA,few clouds
42,Cremona,45.2333,9.9333,64.81,94,0,5.44,IT,clear sky
43,Jamestown,42.097,-79.2353,53.24,71,100,6.91,US,overcast clouds
44,Stokmarknes,68.5646,14.9108,51.78,66,75,16.11,NO,light rain
45,Norman Wells,65.282,-126.8329,39.24,81,75,8.05,CA,broken clouds
46,Lompoc,34.6391,-120.4579,78.94,81,20,12.66,US,few clouds
47,Petropavlovsk-Kamchatskiy,53.0452,158.6483,45.19,100,100,6.71,RU,light intensity shower rain
48,Kjollefjord,70.9457,27.3465,42.85,87,100,4.61,NO,overcast clouds
49,Harbour Breton,47.4833,-55.7983,52.86,75,0,17.6,CA,clear sky
50,Yellowknife,62.456,-114.3525,36.12,64,40,6.91,CA,scattered clouds
51,Cayenne,4.9333,-52.3333,78.84,83,0,1.14,GF,clear sky
52,New Norfolk,-42.7826,147.0587,54.72,48,99,8.08,AU,overcast clouds
53,Kungurtug,50.5994,97.5228,26.11,44,36,0.16,RU,scattered clouds
54,Nabire,-3.3667,135.4833,85.53,65,99,3.0,ID,overcast clouds
55,Tilichiki,60.4667,166.1,42.4,97,100,11.65,RU,moderate rain
56,Songea,-10.6833,35.65,58.6,53,85,3.87,TZ,overcast clouds
57,Chokurdakh,70.6333,147.9167,23.86,85,97,6.93,RU,overcast clouds
58,Dong Xoai,11.5333,106.9167,78.85,85,99,1.79,VN,overcast clouds
59,Touros,-5.1989,-35.4608,76.32,77,23,13.89,BR,few clouds
60,Saint Anthony,45.0205,-93.218,71.13,55,75,5.75,US,broken clouds
61,Saryg-Sep,51.5,95.6,22.8,70,4,2.28,RU,clear sky
62,Coquimbo,-29.9533,-71.3436,55.13,82,75,8.05,CL,broken clouds
63,Avarua,-21.2078,-159.775,78.85,65,40,21.85,CK,scattered clouds
64,Biak,-0.9131,122.8766,83.55,64,76,1.9,ID,broken clouds
65,Jais,26.25,81.5333,74.66,96,100,8.5,IN,overcast clouds
66,Bengkulu,-3.8004,102.2655,76.71,85,100,3.27,ID,overcast clouds
67,Okha,53.5739,142.9478,37.02,69,100,21.36,RU,light rain
68,Bambous Virieux,-20.3428,57.7575,68.25,83,40,4.61,MU,scattered clouds
69,Cabra,37.4725,-4.4421,69.96,38,0,3.51,ES,clear sky
70,Ucluelet,48.9329,-125.5528,60.1,87,98,6.98,CA,overcast clouds
71,Erenhot,43.6475,111.9767,37.0,18,3,4.68,CN,clear sky
72,Saint-Philippe,-21.3585,55.7679,67.59,77,43,10.11,RE,scattered clouds
73,Rikitea,-23.1203,-134.9692,70.56,61,54,24.0,PF,broken clouds
74,Grafton,42.207,-71.6856,54.01,93,100,8.05,US,moderate rain
75,Provideniya,64.3833,-173.3,41.36,75,40,11.18,RU,scattered clouds
76,Lebu,-37.6167,-73.65,49.68,93,14,5.44,CL,few clouds
77,Mayumba,-3.432,10.6554,75.54,83,100,6.17,GA,overcast clouds
78,Denpasar,-8.65,115.2167,78.46,94,75,5.75,ID,broken clouds
79,Hobart,-42.8794,147.3294,55.06,65,75,10.36,AU,broken clouds
80,The Valley,18.217,-63.0578,82.26,77,17,20.31,AI,few clouds
81,Rocky Mountain House,52.3668,-114.9188,68.11,40,100,4.61,CA,overcast clouds
82,Bredasdorp,-34.5322,20.0403,47.79,85,51,4.14,ZA,broken clouds
83,Sept-Iles,50.2001,-66.3821,48.72,93,100,4.61,CA,light rain
84,Kruisfontein,-34.0033,24.7314,51.89,89,0,2.91,ZA,clear sky
85,Bend,44.0582,-121.3153,84.06,24,0,9.22,US,clear sky
86,Qaanaaq,77.484,-69.3632,16.57,77,100,6.11,GL,overcast clouds
87,Khatanga,71.9667,102.5,28.22,98,100,4.59,RU,light snow
88,Komatsu,36.4026,136.4509,62.58,77,75,18.41,JP,broken clouds
89,Port Alfred,-33.5906,26.891,60.19,88,0,1.99,ZA,clear sky
90,Laguna,38.421,-121.4238,89.58,37,0,8.05,US,clear sky
91,Abadzekhskaya,44.3939,40.2214,53.98,97,96,2.75,RU,overcast clouds
92,Saint-Augustin,51.226,-58.6502,52.83,73,99,11.07,CA,overcast clouds
93,Kijang,35.2442,129.2139,65.93,78,100,13.51,KR,overcast clouds
94,Albany,42.6001,-73.9662,52.39,77,100,3.71,US,overcast clouds
95,Tuy Hoa,13.0833,109.3,79.3,87,100,4.21,VN,overcast clouds
96,Keningau,5.3378,116.1602,78.15,86,100,2.37,MY,overcast clouds
97,Lianzhou,24.7811,112.3825,74.52,65,85,5.79,CN,overcast clouds
98,Barrow,71.2906,-156.7887,33.82,80,100,10.36,US,overcast clouds
99,Tiksi,71.6872,128.8694,21.81,85,100,16.11,RU,overcast clouds
100,Panzhihua,26.5851,101.7128,72.99,80,35,1.83,CN,scattered clouds
101,Baracoa,20.3467,-74.4958,79.59,85,74,3.15,CU,broken clouds
102,Longview,32.5007,-94.7405,75.15,46,0,4.61,US,clear sky
103,Krasnaya Polyana,56.242,51.1442,45.23,83,100,10.83,RU,light rain
104,Kenai,60.5544,-151.2583,49.03,89,100,13.8,US,light rain
105,Hithadhoo,-0.6,73.0833,82.42,68,100,17.16,MV,overcast clouds
106,Jinka,5.65,36.65,63.81,82,100,4.72,ET,light rain
107,Cedar City,37.6775,-113.0619,70.77,24,0,9.22,US,clear sky
108,Faanui,-16.4833,-151.75,78.53,72,11,25.28,PF,few clouds
109,Mar Del Plata,-38.0023,-57.5575,57.09,81,0,12.66,AR,clear sky
110,Presidencia Roque Saenz Pena,-26.7852,-60.4388,73.33,27,0,12.24,AR,clear sky
111,Cherskiy,68.75,161.3,27.03,62,7,8.48,RU,clear sky
112,Thompson,55.7435,-97.8558,46.56,66,40,2.3,CA,scattered clouds
113,Lorengau,-2.0226,147.2712,84.65,73,100,11.27,PG,overcast clouds
114,Dingle,10.9995,122.6711,83.62,77,100,7.29,PH,overcast clouds
115,Poum,-20.2333,164.0167,73.69,62,16,6.6,NC,few clouds
116,Tlacojalpan,18.2333,-95.95,74.12,90,24,5.88,MX,few clouds
117,Udachnyy,66.4167,112.4,28.45,86,100,13.4,RU,overcast clouds
118,Acapulco,16.8634,-99.8901,80.26,82,6,5.03,MX,clear sky
119,Port Hedland,-20.3167,118.5667,80.65,54,0,8.05,AU,clear sky
120,Stornoway,58.2093,-6.3865,50.04,87,75,16.11,GB,broken clouds
121,Salalah,17.0151,54.0924,77.09,83,0,4.61,OM,clear sky
122,Hinton,53.4001,-117.5857,58.57,66,100,4.54,CA,overcast clouds
123,Port Shepstone,-30.7414,30.455,66.76,78,100,14.79,ZA,overcast clouds
124,Ulladulla,-35.35,150.4667,56.3,83,100,13.73,AU,light rain
125,Bluff,-46.6,168.3333,39.79,68,95,29.62,NZ,overcast clouds
126,Svetlogorsk,52.6333,29.7333,44.42,89,97,12.55,BY,overcast clouds
127,Tual,-5.6667,132.75,83.01,74,81,10.29,ID,broken clouds
128,Hobyo,5.3505,48.5268,76.44,89,100,13.22,SO,overcast clouds
129,Souillac,-20.5167,57.5167,68.38,83,40,4.61,MU,scattered clouds
130,Coihaique,-45.5752,-72.0662,47.01,76,100,2.3,CL,light rain
131,Qazvin,36.2797,50.0049,69.67,16,0,4.03,IR,clear sky
132,Myitkyina,25.3833,97.4,73.36,99,100,1.74,MM,overcast clouds
133,Pevek,69.7008,170.3133,27.43,76,86,7.7,RU,overcast clouds
134,Upernavik,72.7868,-56.1549,19.94,81,78,5.26,GL,broken clouds
135,Tawau,4.2498,117.8871,82.53,78,100,5.01,MY,overcast clouds
136,Brownsville,25.9018,-97.4975,80.6,62,0,6.91,US,clear sky
137,Mezhdurechensk,53.6942,88.0603,32.05,76,100,3.02,RU,overcast clouds
138,Sunland Park,31.7965,-106.58,81.05,40,20,6.91,US,few clouds
139,Road Town,18.4167,-64.6167,82.49,89,40,6.91,VG,scattered clouds
140,Patu,-6.11,-37.6367,77.61,61,7,4.68,BR,clear sky
141,Tazovskiy,67.4667,78.7,35.19,97,100,18.79,RU,light snow
142,Victoria,22.2855,114.1577,89.19,82,42,5.99,HK,scattered clouds
143,Arraial Do Cabo,-22.9661,-42.0278,71.46,78,75,5.75,BR,broken clouds
144,Sobolevo,54.4299,31.8996,43.27,92,100,11.72,RU,overcast clouds
145,Gediz,39.0417,29.41,47.5,90,14,6.51,TR,few clouds
146,Georgetown,5.4112,100.3354,80.89,95,20,0.0,MY,few clouds
147,Innisfail,-17.5333,146.0333,78.53,69,99,10.27,AU,overcast clouds
148,Tanta,30.7885,31.0019,68.13,79,0,3.74,EG,clear sky
149,Umm Lajj,25.0213,37.2685,84.38,50,0,7.09,SA,clear sky
150,Faya,18.3851,42.4509,63.12,28,17,7.43,SA,few clouds
151,La Ronge,55.1001,-105.2842,61.05,51,40,4.61,CA,smoke
152,Mahibadhoo,3.7833,72.9667,81.88,77,100,16.28,MV,overcast clouds
153,Nikolskoye,59.7035,30.7861,44.8,96,79,3.06,RU,light rain
154,Sokyryany,48.4475,27.4168,50.22,76,100,13.38,UA,overcast clouds
155,Lata,40.1629,-8.3327,57.92,68,0,1.92,PT,clear sky
156,Hit,33.6416,42.8251,79.45,19,0,5.23,IQ,clear sky
157,Palmer,42.1584,-72.3287,55.24,81,100,11.5,US,overcast clouds
158,Payson,40.0444,-111.7321,71.08,38,0,5.75,US,clear sky
159,Clyde River,70.4692,-68.5914,26.83,80,100,16.11,CA,overcast clouds
160,Ochakiv,46.6128,31.5498,53.98,70,49,12.15,UA,scattered clouds
161,Brodokalmak,55.5748,62.082,47.3,49,98,8.72,RU,overcast clouds
162,Hualmay,-11.0964,-77.6139,61.16,79,22,10.74,PE,few clouds
163,San Patricio,28.017,-97.5169,80.46,54,8,8.93,US,clear sky
164,Bueno Brandao,-22.4408,-46.3508,59.16,90,0,2.68,BR,clear sky
165,Ushtobe,45.2514,77.9838,42.24,29,28,9.31,KZ,scattered clouds
166,Cody,44.5263,-109.0565,62.82,55,0,8.05,US,clear sky
167,Hambantota,6.1241,81.1185,77.34,94,40,6.91,LK,scattered clouds
168,Quatre Cocos,-20.2078,57.7625,68.11,75,80,11.12,MU,broken clouds
169,Esperance,-33.8667,121.9,64.83,57,23,19.3,AU,few clouds
170,Teguise,29.0605,-13.564,70.02,73,0,10.36,ES,clear sky
171,Tera,14.0078,0.7531,86.92,56,7,10.22,NE,clear sky
172,Ixtapa,20.7,-105.2,76.41,93,52,1.03,MX,broken clouds
173,Mount Gambier,-37.8333,140.7667,52.21,98,100,11.03,AU,overcast clouds
174,Portland,45.5234,-122.6762,71.94,70,40,3.44,US,scattered clouds
175,Zeya,53.75,127.2667,36.95,40,22,9.22,RU,few clouds
176,Carnarvon,-24.8667,113.6333,69.84,68,48,11.27,AU,scattered clouds
177,Aklavik,68.2191,-135.0107,31.41,92,6,10.58,CA,clear sky
178,Port Elizabeth,-33.918,25.5701,59.31,89,40,4.61,ZA,scattered clouds
179,Puerto Ayora,-0.7393,-90.3518,66.54,94,27,5.99,EC,scattered clouds
180,Tuatapere,-46.1333,167.6833,37.49,81,100,20.98,NZ,overcast clouds
181,Mirnyy,62.5353,113.9611,26.24,79,100,15.99,RU,overcast clouds
182,Fortuna,40.5982,-124.1573,65.91,72,50,1.01,US,scattered clouds
183,College,64.8569,-147.8028,57.18,40,75,10.36,US,broken clouds
184,Caravelas,-17.7125,-39.2481,75.58,77,96,11.79,BR,overcast clouds
185,Ballina,-28.8667,153.5667,70.02,62,100,8.7,AU,overcast clouds
186,Yulara,-25.2406,130.9889,72.46,37,0,4.54,AU,clear sky
187,Rantepao,-2.9701,119.8978,76.35,78,100,1.52,ID,overcast clouds
188,Pangnirtung,66.1451,-65.7125,34.07,68,100,5.93,CA,overcast clouds
189,Nanortalik,60.1432,-45.2371,38.77,95,100,19.06,GL,moderate rain
190,Mahebourg,-20.4081,57.7,68.29,83,40,4.61,MU,scattered clouds
191,Lima Duarte,-21.8425,-43.7931,62.47,96,96,2.04,BR,overcast clouds
192,Pacific Grove,36.6177,-121.9166,76.01,88,100,11.99,US,overcast clouds
193,Khani,41.9563,42.9566,53.17,84,100,2.98,GE,overcast clouds
194,Kulaman,6.4594,124.0892,85.89,64,44,1.41,PH,scattered clouds
195,Ibotirama,-12.1853,-43.2206,86.43,36,100,8.3,BR,overcast clouds
196,Mogadishu,2.0371,45.3438,76.86,86,42,9.55,SO,scattered clouds
197,Nioro,13.35,-15.75,77.34,93,83,6.49,GM,light rain
198,Tasiilaq,65.6145,-37.6368,20.98,66,5,7.67,GL,clear sky
199,Chapais,49.7834,-74.8492,49.78,99,100,3.02,CA,overcast clouds
200,Seoul,37.5683,126.9778,61.99,68,40,4.61,KR,scattered clouds
201,Andenes,69.3143,16.1194,49.98,76,40,19.57,NO,scattered clouds
202,Kupang,-10.1667,123.5833,84.76,70,42,5.1,ID,scattered clouds
203,Namibe,-15.1961,12.1522,64.22,90,48,4.47,AO,scattered clouds
204,Benghazi,32.1167,20.0667,74.68,65,0,14.54,LY,clear sky
205,Castro,-24.7911,-50.0119,55.83,95,5,5.37,BR,clear sky
206,San Ignacio,17.1561,-89.0714,86.14,66,20,4.61,BZ,few clouds
207,Cihuatlan,19.2366,-104.5651,77.43,88,37,2.91,MX,scattered clouds
208,Labuhan,-6.8844,112.2051,81.5,71,100,12.46,ID,overcast clouds
209,Port Augusta,-32.5,137.7667,74.35,47,0,10.02,AU,clear sky
210,Port-Gentil,-0.7193,8.7815,77.2,81,37,7.99,GA,scattered clouds
211,Airai,-8.9266,125.4092,71.04,69,78,2.21,TL,broken clouds
212,Sola,-13.8833,167.55,80.71,77,49,17.0,VU,scattered clouds
213,Rhymney,51.76,-3.2855,60.22,94,100,19.64,GB,light rain
214,Longyearbyen,78.2186,15.6401,37.24,75,75,14.97,SJ,broken clouds
215,Hovd,48.0056,91.6419,29.97,33,0,1.25,MN,clear sky
216,North Platte,41.1239,-100.7654,66.09,58,0,5.75,US,clear sky
217,Ostrovnoy,68.0531,39.5131,45.66,94,100,11.18,RU,overcast clouds
218,Oboyan,51.2098,36.2792,46.9,89,100,12.75,RU,overcast clouds
219,Segovia,41.1667,-4.0,59.43,36,0,3.31,ES,clear sky
220,Makarov,48.6333,142.8,43.95,45,9,13.96,RU,clear sky
221,Waipawa,-41.4122,175.5153,52.23,77,11,17.78,NZ,light rain
222,Ende,-8.8432,121.6623,84.81,71,40,4.38,ID,scattered clouds
223,Gelemso,8.8167,40.5167,58.89,82,66,3.6,ET,broken clouds
224,Dubti,11.7361,41.0853,84.09,49,98,9.51,ET,light rain
225,Honningsvag,70.9821,25.9704,42.55,75,3,12.66,NO,clear sky
226,Polunochnoye,60.8697,60.4153,41.22,78,64,2.37,RU,broken clouds
227,Zastron,-30.3023,27.084,59.63,10,60,5.19,ZA,broken clouds
228,Maralal,1.0968,36.698,57.13,78,6,6.11,KE,clear sky
229,Sirjan,29.452,55.6814,66.67,22,2,5.79,IR,clear sky
230,Kotelnich,58.3089,48.348,43.45,92,100,10.13,RU,light rain
231,Mayo,38.8876,-76.5119,51.96,95,100,5.01,US,light rain
232,Lodja,-3.4833,23.4333,68.0,99,100,1.86,CD,overcast clouds
233,Iqaluit,63.7506,-68.5145,33.53,100,75,0.0,CA,broken clouds
234,Banyuwangi,-8.2325,114.3576,80.58,79,64,5.84,ID,broken clouds
235,Yuci,37.6803,112.7319,47.95,57,20,8.95,CN,few clouds
236,Saskylakh,71.9167,114.0833,23.95,96,100,5.21,RU,light snow
237,Severo-Kurilsk,50.6789,156.125,46.13,92,100,20.8,RU,light rain
238,Sao Gabriel Da Cachoeira,-0.1303,-67.0892,77.59,75,48,1.79,BR,scattered clouds
239,Rocha,-34.4833,-54.3333,49.23,94,0,5.1,UY,clear sky
240,Lady Frere,-31.7031,27.2329,52.36,87,100,2.24,ZA,overcast clouds
241,Taft,31.7471,54.2088,64.35,22,0,2.3,IR,clear sky
242,Mizan Teferi,6.9833,35.5833,60.53,96,100,2.75,ET,light rain
243,Bilma,18.6853,12.9164,85.64,19,0,1.21,NE,clear sky
244,Krasnyy Chikoy,50.3643,108.7512,29.28,66,28,2.8,RU,scattered clouds
245,Bousse,12.6606,-1.8922,78.55,66,97,7.16,BF,light rain
246,Buala,-8.145,159.5921,84.29,72,78,11.77,SB,light rain
247,Yola,9.2,12.4833,74.05,85,100,3.13,NG,overcast clouds
248,Xining,36.6167,101.7667,47.88,83,100,1.36,CN,overcast clouds
249,Sisimiut,66.9395,-53.6735,29.08,74,7,8.1,GL,clear sky
250,Kousseri,12.0769,15.0306,80.92,63,100,6.89,CM,overcast clouds
251,Sitka,57.0531,-135.33,58.69,63,100,6.64,US,overcast clouds
252,Kununurra,-15.7667,128.7333,87.78,62,2,4.61,AU,clear sky
253,Salamanca,40.8333,-6.0,65.62,36,0,2.75,ES,clear sky
254,Gorontalo,0.5412,123.0595,87.04,66,90,0.63,ID,overcast clouds
255,Isangel,-19.55,169.2667,78.91,83,75,6.91,VU,broken clouds
256,Qaqortoq,60.7167,-46.0333,34.59,96,100,9.69,GL,light snow
257,Taber,49.8167,-112.1518,75.4,37,9,4.61,CA,clear sky
258,Anadyr,64.75,177.4833,34.3,69,75,11.18,RU,broken clouds
259,Bonavista,48.6499,-53.1147,51.06,77,0,19.44,CA,clear sky
260,Princeton,25.5384,-80.4089,80.62,74,20,9.22,US,few clouds
261,Sladkovo,55.5284,70.3385,40.98,89,48,8.86,RU,scattered clouds
262,Tarko-Sale,64.9225,77.785,36.45,96,100,16.4,RU,overcast clouds
263,Itaituba,-4.2761,-55.9836,77.7,70,8,1.34,BR,clear sky
264,Saint-Pierre,-21.3393,55.4781,67.68,68,100,6.91,RE,overcast clouds
265,Los Cedrales,-25.65,-54.7,70.09,71,0,2.55,PY,clear sky
266,Uglovskoye,51.3557,80.1942,31.84,60,57,5.32,RU,broken clouds
267,Banjar,-8.19,114.9675,83.12,72,58,5.12,ID,broken clouds
268,Dubbo,-32.25,148.6167,55.53,88,100,17.27,AU,moderate rain
269,Chara,56.9064,118.2631,21.81,64,26,3.27,RU,scattered clouds
270,Ures,29.4333,-110.4,80.47,47,0,6.6,MX,clear sky
271,Mount Isa,-20.7333,139.5,78.57,69,75,11.5,AU,broken clouds
272,Panyutyne,48.9333,36.2833,46.4,74,16,9.71,UA,few clouds
273,Vostok,46.4856,135.8833,32.7,49,8,10.71,RU,clear sky
274,Upington,-28.4478,21.2561,59.38,23,0,3.44,ZA,clear sky
275,Vardo,70.3705,31.1107,44.58,87,75,11.5,NO,broken clouds
276,Mehamn,71.0357,27.8492,42.75,87,100,4.61,NO,overcast clouds
277,Cabo San Lucas,22.8909,-109.9124,85.3,74,0,7.43,MX,clear sky
278,Cascais,38.6979,-9.4215,71.96,45,0,1.99,PT,clear sky
279,Soskovo,52.7475,35.3828,43.83,92,100,11.7,RU,light rain
280,Eyl,7.9803,49.8164,76.1,83,35,11.18,SO,scattered clouds
281,Pueblo Nuevo,23.3833,-105.3833,55.15,95,30,0.67,MX,scattered clouds
282,Zaragoza,41.6561,-0.8773,65.01,79,0,5.75,ES,clear sky
283,Torbay,47.6666,-52.7314,50.58,85,0,24.16,CA,clear sky
284,Ancud,-41.8697,-73.8203,47.19,92,27,4.79,CL,scattered clouds
285,Umea,63.8284,20.2597,48.13,87,20,12.66,SE,moderate rain
286,Rawson,-43.3002,-65.1023,64.15,37,99,9.31,AR,overcast clouds
287,Tahoua,14.8888,5.2692,80.58,69,0,4.61,NE,clear sky
288,Kismayo,-0.3582,42.5454,76.37,86,6,10.54,SO,clear sky
289,Livingston,55.9029,-3.5226,57.13,94,75,6.91,GB,moderate rain
290,Tateyama,34.9833,139.8667,75.13,78,75,8.05,JP,light rain
291,El Corozal,15.0667,-88.6167,76.84,92,41,1.43,HN,scattered clouds
292,Xuddur,4.1213,43.8894,71.96,79,73,11.61,SO,broken clouds
293,Guerrero Negro,27.9769,-114.0611,71.4,74,2,12.03,MX,clear sky
294,Zhanaozen,43.3,52.8,56.8,17,0,18.28,KZ,clear sky
295,La Libertad,-2.2333,-80.9,68.27,83,100,14.0,EC,overcast clouds
296,Goderich,43.7501,-81.7165,53.91,87,8,3.44,CA,clear sky
297,Komono,35.0,136.5167,72.41,89,100,7.07,JP,overcast clouds
298,Prince Rupert,54.3161,-130.3201,60.89,77,100,11.5,CA,overcast clouds
299,Kloulklubed,7.0419,134.2556,82.9,78,100,7.29,PW,overcast clouds
300,Valle Hermoso,25.6667,-97.8333,78.93,56,8,12.55,MX,clear sky
301,Matagami,49.7502,-77.6328,55.51,94,100,2.3,CA,overcast clouds
302,Itarema,-2.9248,-39.9167,77.54,79,91,15.61,BR,overcast clouds
303,Bilibino,68.0546,166.4372,24.91,67,29,4.76,RU,scattered clouds
304,Bethel,41.3712,-73.414,55.49,87,100,6.91,US,overcast clouds
305,Nizhniy Baskunchak,48.2198,46.8311,56.89,79,100,9.86,RU,overcast clouds
306,Kodiak,57.79,-152.4072,53.11,87,100,19.57,US,moderate rain
307,Redding,40.5865,-122.3917,89.38,30,55,1.99,US,broken clouds
308,Vadso,70.0744,29.7487,44.76,81,100,9.22,NO,overcast clouds
309,Oakdale,44.963,-92.9649,70.43,58,0,4.61,US,clear sky
310,Isla Mujeres,21.2311,-86.731,78.17,61,80,11.59,MX,broken clouds
311,West Wendover,40.7391,-114.0733,72.61,25,0,8.05,US,clear sky
312,Libenge,3.65,18.6333,69.96,97,100,1.36,CD,overcast clouds
313,Oswego,43.4501,-76.1497,53.53,86,100,4.63,US,overcast clouds
314,Sakaiminato,35.55,133.2333,64.38,88,75,18.41,JP,light intensity shower rain
315,Camacha,33.0833,-16.3333,65.62,83,20,5.75,PT,few clouds
316,Maraba,-5.3686,-49.1178,84.38,70,0,4.61,BR,clear sky
317,Ambunti,-4.2365,142.8448,90.14,58,100,1.81,PG,overcast clouds
318,Leningradskiy,69.3833,178.4167,23.65,84,38,3.71,RU,scattered clouds
319,Hasaki,35.7333,140.8333,73.8,78,100,24.63,JP,overcast clouds
320,Aykhal,66.0,111.5,26.89,92,100,18.48,RU,overcast clouds
321,Sheridan,44.8333,-106.9173,62.02,61,0,5.39,US,clear sky
322,Karratha,-20.7377,116.8463,77.13,30,0,3.53,AU,clear sky
323,Astorga,-23.2325,-51.6656,71.83,77,0,5.19,BR,clear sky
324,Samana,19.2056,-69.3369,79.72,86,99,6.71,DO,overcast clouds
325,Kudahuvadhoo,2.6708,72.8944,81.61,76,100,16.58,MV,overcast clouds
326,Gornyak,50.9942,81.4661,30.97,64,32,3.89,RU,scattered clouds
327,Diamantino,-14.4086,-56.4461,79.65,59,34,4.16,BR,scattered clouds
328,Sorland,67.667,12.6934,49.86,92,100,24.54,NO,light rain
329,Cabedelo,-6.9811,-34.8339,75.87,80,28,9.24,BR,scattered clouds
330,Tarakan,3.3,117.6333,80.1,89,75,5.75,ID,light rain
331,Batemans Bay,-35.7167,150.1833,58.1,82,100,11.63,AU,moderate rain
332,Adrar,20.5022,-10.0711,91.35,17,75,9.95,MR,broken clouds
333,Mayya,61.7333,130.2811,27.72,64,100,10.92,RU,overcast clouds
334,Port Hardy,50.6996,-127.4199,59.0,88,75,8.05,CA,broken clouds
335,Santa Maria Del Oro,25.9333,-105.3667,64.92,60,93,6.26,MX,overcast clouds
336,Margate,51.3813,1.3862,62.91,82,100,5.99,GB,overcast clouds
337,Yeppoon,-23.1333,150.7333,76.78,58,91,12.41,AU,overcast clouds
338,Ust-Kuyga,70.0167,135.6,22.68,87,98,4.97,RU,overcast clouds
339,Fairbanks,64.8378,-147.7164,57.2,43,75,10.36,US,broken clouds
340,Avera,33.194,-82.5271,63.91,58,0,5.61,US,clear sky
341,Melfi,40.9965,15.6514,53.38,65,0,2.06,IT,clear sky
342,Sao Joao Da Barra,-21.6403,-41.0511,71.69,95,100,9.08,BR,moderate rain
343,Djibo,14.1022,-1.6306,87.24,49,7,8.19,BF,clear sky
344,Olafsvik,64.8945,-23.7142,39.97,92,100,36.37,IS,overcast clouds
345,Antofagasta,-23.65,-70.4,58.28,81,55,5.82,CL,broken clouds
346,Ahipara,-35.1667,173.1667,60.3,66,100,14.36,NZ,light rain
347,Lagoa,39.05,-27.9833,67.48,87,100,24.87,PT,overcast clouds
348,Palana,59.1167,159.9667,40.91,90,100,25.93,RU,light rain
349,Roros,62.5747,11.3842,44.58,98,100,8.28,NO,light rain
350,Muncar,-8.4333,114.3333,80.19,77,90,5.93,ID,overcast clouds
351,Deputatskiy,69.3,139.9,9.41,92,69,2.17,RU,broken clouds
352,Jiangkou,25.4872,119.1986,76.28,87,100,16.67,CN,overcast clouds
353,Ribeira Grande,38.5167,-28.7,70.92,87,100,11.05,PT,light rain
354,Ust-Tsilma,65.441,52.1498,41.31,99,100,4.05,RU,overcast clouds
355,Marawi,7.9986,124.2928,77.92,71,63,4.16,PH,broken clouds
356,Bathsheba,13.2167,-59.5167,81.21,89,75,27.63,BB,broken clouds
357,Constantine,36.365,6.6147,62.01,94,75,2.3,DZ,broken clouds
358,Ulu-Telyak,54.9086,56.9669,43.16,48,100,4.12,RU,overcast clouds
359,Fort-Shevchenko,44.5086,50.263,64.35,33,10,19.17,KZ,clear sky
360,Tucuman,-26.8241,-65.2226,71.6,53,0,5.75,AR,clear sky
361,Banda Aceh,5.5577,95.3222,75.38,93,100,6.96,ID,overcast clouds
362,Ambilobe,-13.2,49.05,63.99,85,8,3.22,MG,clear sky
363,Axim,4.8699,-2.2405,75.24,94,100,5.91,GH,overcast clouds
364,Tumpat,6.1978,102.171,77.02,94,20,3.44,MY,few clouds
365,Antigonish,45.6169,-61.9986,52.83,90,30,7.0,CA,scattered clouds
366,Kamaishi,39.2667,141.8833,62.56,60,96,3.65,JP,overcast clouds
367,Ayagoz,47.9714,80.4392,28.78,59,0,12.55,KZ,clear sky
368,Waingapu,-9.6567,120.2641,84.22,68,48,7.27,ID,scattered clouds
369,Westport,41.1415,-73.3579,58.06,86,100,11.99,US,overcast clouds
370,Luanda,-8.8368,13.2343,73.4,88,71,8.05,AO,broken clouds
371,Oriximina,-1.7656,-55.8661,78.03,76,44,2.86,BR,scattered clouds
372,Ponta Delgada,37.7333,-25.6667,71.51,100,40,4.61,PT,scattered clouds
373,Canberra,-35.2835,149.1281,53.28,91,100,5.75,AU,moderate rain
374,Manta,-0.95,-80.7333,73.18,78,75,16.11,EC,broken clouds
375,Takoradi,4.8845,-1.7554,75.0,94,100,6.55,GH,overcast clouds
376,San Quintin,30.4833,-115.95,70.18,81,49,9.6,MX,scattered clouds
377,Mana,5.6592,-53.7767,79.14,83,26,9.26,GF,scattered clouds
378,San Policarpo,12.1791,125.5072,82.71,79,99,6.46,PH,overcast clouds
379,Wanning,18.8003,110.3967,82.33,81,5,7.16,CN,clear sky
380,Canutama,-6.5339,-64.3831,80.35,63,100,1.12,BR,overcast clouds
381,Taoudenni,22.6783,-3.9836,93.34,13,0,9.57,ML,clear sky
382,Itacoatiara,-3.1431,-58.4442,78.6,71,71,1.92,BR,broken clouds
383,Kuytun,54.3419,101.5036,28.6,79,23,3.31,RU,few clouds
384,Bundaberg,-24.85,152.35,73.22,66,100,5.01,AU,overcast clouds
385,Terrasini,38.146,13.0844,71.22,76,0,9.22,IT,clear sky
386,Beisfjord,68.3751,17.5988,53.65,86,100,8.16,NO,overcast clouds
387,Dryden,49.7833,-92.7503,59.29,88,100,5.75,CA,overcast clouds
388,Half Moon Bay,37.4636,-122.4286,76.53,78,100,11.5,US,mist
389,Balaka,-14.9793,34.9558,70.45,31,8,3.18,MW,clear sky
390,Zhangjiakou,40.81,114.8794,40.96,25,37,4.16,CN,scattered clouds
391,Koygorodok,60.445,50.9968,44.62,75,83,6.6,RU,broken clouds
392,Neuquen,-38.9516,-68.0591,60.69,51,0,5.75,AR,clear sky
393,Antalaha,-14.9003,50.2788,68.36,74,99,6.31,MG,overcast clouds
394,Simi,9.5667,-12.35,73.33,99,100,3.42,SL,light rain
395,Siderno,38.2779,16.302,61.34,56,14,5.12,IT,few clouds
396,Vanimo,-2.6741,141.3028,86.54,64,100,7.36,PG,overcast clouds
397,Hamilton,39.1834,-84.5333,58.98,61,0,4.03,US,clear sky
398,Russell,32.3502,-85.1999,67.01,59,48,2.17,US,scattered clouds
399,Alofi,-19.0595,-169.9187,82.29,69,40,12.66,NU,scattered clouds
400,Passo De Camaragibe,-9.2368,-35.4901,71.15,85,73,2.3,BR,broken clouds
401,High Level,58.5169,-117.136,51.91,58,75,16.11,CA,smoke
402,Tautira,-17.7333,-149.15,76.23,73,32,22.88,PF,scattered clouds
403,Richards Bay,-28.783,32.0377,66.92,73,60,4.07,ZA,broken clouds
404,Taybad,34.74,60.7756,63.88,25,0,9.69,IR,clear sky
405,Vestmannaeyjar,63.4427,-20.2734,43.05,77,100,33.55,IS,overcast clouds
406,Meulaboh,4.1363,96.1285,73.83,97,100,10.56,ID,overcast clouds
407,Nome,64.5011,-165.4064,48.16,82,74,9.22,US,broken clouds
408,Winnemucca,40.973,-117.7357,73.08,20,0,7.0,US,clear sky
409,Sant Pere De Ribes,41.2667,1.7667,67.28,90,0,3.0,ES,clear sky
410,Sao Felix Do Xingu,-6.6447,-51.995,79.0,40,1,2.1,BR,clear sky
411,Wamba,8.9333,8.6,71.01,96,60,1.21,NG,light rain
412,Jaisalmer,26.9147,70.9181,80.44,43,2,9.26,IN,clear sky
413,Nuuk,64.1835,-51.7216,36.88,69,100,10.0,GL,overcast clouds
414,Gigmoto,13.7796,124.39,84.63,76,100,5.66,PH,overcast clouds
415,Male,4.1748,73.5089,82.35,78,75,19.57,MV,broken clouds
416,Bikin,46.8161,134.26,41.74,38,0,10.18,RU,clear sky
417,Puerto Narino,-3.7703,-70.3831,77.23,76,81,0.72,CO,broken clouds
418,Elmadag,39.9208,33.2308,50.34,79,26,5.19,TR,scattered clouds
419,Bairiki,1.3292,172.9752,86.0,70,20,13.8,KI,few clouds
420,Kruszwica,52.6756,18.3313,53.11,62,100,8.1,PL,overcast clouds
421,Alice Town,25.7167,-79.3,80.35,68,3,12.53,BS,clear sky
422,Komsomolskiy,40.4272,71.7189,56.12,41,4,4.61,UZ,clear sky
423,Jiayuguan,39.8167,98.3,46.9,36,48,2.26,CN,scattered clouds
424,Kyren,51.6828,102.1408,31.39,55,0,0.67,RU,clear sky
425,Maningrida,-12.0667,134.2667,86.94,58,95,9.66,AU,overcast clouds
426,San Cristobal,7.7669,-72.225,75.38,97,100,2.01,VE,overcast clouds
427,Quang Ngai,15.1167,108.8,79.95,83,100,5.17,VN,overcast clouds
428,Hami,42.8,93.45,53.64,59,99,6.98,CN,overcast clouds
429,Reiskirchen,50.6,8.8333,49.87,92,75,4.47,DE,broken clouds
430,Suleja,9.1758,7.1808,71.15,93,69,1.34,NG,light rain
431,Paamiut,61.994,-49.6678,37.15,97,100,28.34,GL,light rain
432,Flinders,-34.5833,150.8552,61.38,80,100,3.0,AU,light rain
433,Black River,18.0264,-77.8487,80.37,83,99,1.14,JM,overcast clouds
434,Birin,26.8865,88.0718,61.57,93,100,3.27,NP,overcast clouds
435,Warrington,53.3925,-2.5802,62.46,94,75,19.57,GB,broken clouds
436,Berdigestyakh,62.0989,126.6992,26.13,74,100,11.48,RU,overcast clouds
437,Tambacounda,13.7539,-13.7586,84.25,84,0,4.61,SN,clear sky
438,Saint-Leu,-21.15,55.2833,67.06,79,4,4.63,RE,clear sky
439,Shelburne,44.0787,-80.2041,56.19,71,9,2.48,CA,clear sky
440,Brae,60.3964,-1.353,51.31,79,100,17.05,GB,overcast clouds
441,Aberdeen,57.1437,-2.0981,51.21,100,40,2.3,GB,moderate rain
442,Port Lincoln,-34.7333,135.8667,64.35,73,39,10.98,AU,scattered clouds
443,Conceicao Da Barra,-18.5933,-39.7322,75.69,76,94,10.04,BR,overcast clouds
444,Fort Nelson,58.8053,-122.7002,47.79,61,75,9.22,CA,smoke
445,Ashland,40.8167,-82.2665,50.88,65,7,4.76,US,clear sky
446,Gafanha Da Encarnacao,40.6181,-8.733,58.05,88,0,5.12,PT,clear sky
447,Linhares,-19.3911,-40.0722,71.1,90,100,1.83,BR,overcast clouds
448,Nizwa,22.9333,57.5333,74.5,56,26,2.73,OM,scattered clouds
449,Plouzane,48.3833,-4.6167,61.12,79,100,17.27,FR,overcast clouds
450,San Pedro,14.35,121.0167,85.35,78,40,2.3,PH,scattered clouds
451,Neiafu,-18.65,-173.9833,84.88,79,75,10.36,TO,broken clouds
452,Katobu,-4.9408,122.5276,85.55,66,100,4.05,ID,overcast clouds
453,Eureka,40.8021,-124.1637,66.18,79,75,4.0,US,broken clouds
454,Asfi,32.2994,-9.2372,68.56,78,28,7.65,MA,scattered clouds
455,Svodin,47.9105,18.4997,48.13,85,10,2.08,SK,clear sky
456,Kinna,57.5073,12.6946,58.8,93,100,12.03,SE,light rain
457,Igurubi,-4.0,33.7,72.66,40,33,9.71,TZ,scattered clouds
458,Sioux Lookout,50.1001,-91.917,57.27,94,75,3.44,CA,broken clouds
459,Rio Gallegos,-51.6226,-69.2181,50.05,57,40,14.97,AR,scattered clouds
460,Hay River,60.8156,-115.7999,40.98,75,75,9.22,CA,broken clouds
461,Machinga,-15.1685,35.3,69.35,29,1,4.18,MW,clear sky
462,Camana,-16.6228,-72.7111,60.66,75,47,6.04,PE,scattered clouds
463,Jumla,29.2747,82.1838,54.34,85,9,4.25,NP,clear sky
464,Nouadhibou,20.931,-17.0347,78.78,57,95,12.66,MR,overcast clouds
465,Talavera,15.6167,120.9333,82.71,76,100,2.91,PH,overcast clouds
466,Mao,39.8885,4.2658,63.16,94,0,3.44,ES,clear sky
467,Katsuura,35.1333,140.3,75.22,83,100,18.14,JP,overcast clouds
468,Porto Belo,-27.1578,-48.5531,64.35,80,100,5.26,BR,overcast clouds
469,Garissa,-0.4536,39.6401,72.79,82,6,12.15,KE,clear sky
470,Mezen,65.8522,44.24,40.69,98,100,5.48,RU,overcast clouds
471,Nelidovo,56.2211,32.7774,40.01,96,100,4.18,RU,overcast clouds
472,Peniche,39.3558,-9.3811,62.08,90,0,9.89,PT,clear sky
473,Bollnas,61.3482,16.3946,52.39,92,100,11.34,SE,overcast clouds
474,Muzhi,65.3667,64.6667,35.47,87,98,4.14,RU,overcast clouds
475,Jalu,29.0331,21.5482,71.49,58,0,8.05,LY,clear sky
476,Roma,43.2128,-75.4557,53.67,89,100,1.16,US,overcast clouds
477,Kysyl-Syr,63.8986,122.7617,26.42,71,100,7.43,RU,overcast clouds
478,Fukue,32.6881,128.8419,73.76,78,40,13.8,JP,scattered clouds
479,Kidal,18.4411,1.4078,89.94,20,63,7.14,ML,broken clouds
480,Broken Hill,-31.95,141.4333,75.94,43,12,18.77,AU,few clouds
481,Yumen,40.2833,97.2,45.36,36,25,4.32,CN,scattered clouds
482,Saint-Louis,16.3333,-15.0,87.44,44,96,12.71,SN,overcast clouds
483,Roald,62.5833,6.1333,51.94,71,1,8.05,NO,clear sky
484,Ginda,30.6945,78.4932,56.66,64,0,6.6,IN,clear sky
485,Cacu,-18.5567,-51.1308,71.1,78,3,3.56,BR,clear sky
486,Riyadh,24.6877,46.7219,78.94,32,0,3.6,SA,clear sky
487,Surt,31.2089,16.5887,75.18,62,7,12.24,LY,clear sky
488,Kamien Pomorski,53.9685,14.7726,50.36,79,100,12.48,PL,overcast clouds
489,Candido Mendes,-1.4467,-45.7167,75.27,82,28,3.89,BR,scattered clouds
490,Santiago,-33.4569,-70.6483,56.86,60,75,9.22,CL,broken clouds
491,Saint George,37.1041,-113.5841,85.95,26,0,3.0,US,clear sky
492,Kita,13.0349,-9.4895,76.77,82,67,4.16,ML,broken clouds
493,Padang,-0.9492,100.3543,73.45,87,100,4.99,ID,heavy intensity rain
494,Effingham,32.3669,-81.3332,59.95,90,2,2.46,US,clear sky
495,Luderitz,-26.6481,15.1594,54.28,79,6,15.97,NA,clear sky
496,Maceio,-9.6658,-35.7353,71.04,94,20,3.44,BR,few clouds
497,Oranjemund,-28.55,16.4333,54.52,90,5,12.15,NA,clear sky
498,Benguela,-12.5763,13.4055,72.19,82,61,5.79,AO,broken clouds
499,Bambanglipuro,-7.95,110.2833,79.16,79,100,8.16,ID,overcast clouds
500,Vila Velha,-20.3297,-40.2925,73.35,92,75,8.99,BR,moderate rain
501,Strezhevoy,60.7333,77.5889,36.14,93,100,7.47,RU,overcast clouds
502,Majene,-3.5403,118.9707,82.6,76,99,2.75,ID,overcast clouds
503,Angoche,-16.2325,39.9086,70.47,79,0,7.02,MZ,clear sky
504,Severo-Yeniseyskiy,60.3725,93.0408,29.97,76,100,11.32,RU,overcast clouds
505,Karad,17.2833,74.2,72.0,77,100,3.67,IN,overcast clouds
506,Kamenka,51.3223,42.7678,51.12,89,54,9.08,RU,broken clouds
507,Pangody,65.85,74.4859,35.56,83,100,14.63,RU,overcast clouds
508,Leh,34.1667,77.5833,42.91,55,2,4.0,IN,clear sky
509,Ovalle,-30.5983,-71.2003,54.36,68,9,2.55,CL,clear sky
510,Beringovskiy,63.05,179.3167,43.27,74,94,15.08,RU,overcast clouds
511,Nha Trang,12.25,109.1833,80.6,80,56,3.91,VN,broken clouds
512,Sindor,62.8629,51.8905,44.73,97,96,5.14,RU,overcast clouds
513,Puerto Carreno,6.189,-67.4859,79.3,81,100,4.97,CO,moderate rain
514,Havoysund,70.9963,24.6622,43.03,79,9,17.85,NO,clear sky
515,Minden,52.2833,8.9167,55.62,78,75,9.22,DE,broken clouds
516,Fare,-16.7,-151.0167,78.3,71,10,25.41,PF,clear sky
517,Praya,14.9215,-23.5087,79.32,80,98,4.41,CV,overcast clouds
518,Ingham,42.6,-84.3833,57.15,68,0,0.0,US,clear sky
519,Port Blair,11.6667,92.75,81.12,79,100,5.61,IN,overcast clouds
520,Puro,12.4841,123.3827,83.68,76,91,7.72,PH,overcast clouds
521,Melfort,52.8667,-104.6177,61.81,52,36,4.65,CA,scattered clouds
522,Dobris,49.7811,14.1672,46.2,91,96,4.65,CZ,overcast clouds
523,Yuzhno-Kurilsk,44.0306,145.8556,54.7,63,40,19.98,RU,scattered clouds
524,Camacupa,-12.0167,17.4833,65.1,48,11,2.3,AO,few clouds
525,Outjo,-20.1167,16.15,65.73,31,0,5.57,NA,clear sky
526,Bonthe,7.5264,-12.505,77.0,88,100,4.61,SL,overcast clouds
527,Bama,11.5221,13.6856,76.3,71,95,7.0,NG,overcast clouds
528,Opuwo,-18.0607,13.84,66.38,40,0,2.82,NA,clear sky
529,Vila,42.0304,-8.1588,49.08,54,0,3.29,PT,clear sky
530,Kez,57.8979,53.7152,44.04,56,100,8.66,RU,overcast clouds
531,Mmathubudukwane,-24.6,26.4333,77.09,35,27,11.81,BW,scattered clouds
532,Novosergiyevka,52.0934,53.6528,46.74,29,100,11.61,RU,overcast clouds
533,Egvekinot,66.3167,-179.1667,27.0,76,75,5.28,RU,broken clouds
534,Kiama,-34.6833,150.8667,61.57,82,100,5.99,AU,light rain
535,Aswan,24.0934,32.907,81.93,27,8,10.13,EG,clear sky
536,La Romana,18.4273,-68.9728,77.95,88,100,7.85,DO,overcast clouds
537,Ibra,22.6906,58.5334,71.49,76,13,3.71,OM,few clouds
538,Cockburn Town,21.4612,-71.1419,83.28,76,99,5.82,TC,overcast clouds
539,Colac,-38.3333,143.5833,54.18,73,100,13.42,AU,light rain
540,Barranca,-10.75,-77.7667,60.3,81,31,9.08,PE,scattered clouds
541,Paciran,-6.8767,112.3761,80.26,76,100,9.84,ID,overcast clouds
542,Viedma,-40.8135,-62.9967,53.58,86,95,13.47,AR,overcast clouds
543,Tonj,7.2737,28.6822,68.32,95,40,2.73,SS,scattered clouds
544,Jurm,36.8648,70.8342,49.33,51,0,0.45,AF,clear sky
545,Wanaka,-44.7,169.15,40.57,67,90,8.55,NZ,overcast clouds
546,Praia Da Vitoria,38.7333,-27.0667,70.75,88,91,7.85,PT,overcast clouds
547,Watertown,42.3709,-71.1828,56.37,94,100,8.01,US,overcast clouds
548,Broome,42.2506,-75.833,51.19,81,100,3.0,US,overcast clouds
549,Chumikan,54.7183,135.315,37.26,42,100,18.12,RU,overcast clouds
550,Los Angeles,34.0522,-118.2437,89.87,69,0,3.0,US,clear sky
551,Boende,-0.2167,20.8667,71.17,91,100,1.77,CD,overcast clouds
552,Pisco,-13.7,-76.2167,59.02,82,1,4.0,PE,clear sky
553,Trincomalee,8.5711,81.2335,79.83,79,100,16.71,LK,overcast clouds
554,Tessalit,20.1986,1.0114,87.98,17,21,6.17,ML,few clouds
555,Pleasanton,37.6624,-121.8747,82.33,61,8,5.99,US,clear sky
556,Isabela,6.7085,121.9711,85.14,71,91,7.54,PH,overcast clouds
557,Shihezi,44.3,86.0333,49.06,34,58,2.59,CN,broken clouds
558,Urumqi,43.801,87.6005,40.15,56,0,2.24,CN,clear sky
559,Poronaysk,49.2167,143.1167,44.04,41,6,15.1,RU,clear sky
560,Shieli,44.1667,66.75,49.93,27,0,14.41,KZ,clear sky
561,Shu,43.5983,73.7614,49.5,45,36,3.29,KZ,scattered clouds
562,Nguru,12.8791,10.4526,84.49,52,100,8.37,NG,overcast clouds
563,Cooma,-36.2333,149.1333,45.57,96,100,10.38,AU,light rain
564,Wuhu,31.3366,118.3755,59.45,57,100,12.46,CN,overcast clouds
565,Marondera,-18.1853,31.5519,56.5,55,0,4.79,ZW,clear sky
566,Nanakuli,21.3906,-158.1547,83.03,69,29,9.37,US,scattered clouds
567,Vicksburg,32.3526,-90.8779,64.63,91,0,0.0,US,clear sky
568,Veracruz,19.3333,-96.6667,69.28,96,74,0.69,MX,broken clouds
569,Marsa Matruh,31.3525,27.2453,74.32,66,98,11.36,EG,overcast clouds
570,Katherine,-14.4667,132.2667,88.12,48,3,8.05,AU,clear sky
571,Pochutla,15.7432,-96.4661,80.82,88,6,3.85,MX,clear sky
572,Vila Franca Do Campo,37.7167,-25.4333,70.2,92,39,4.16,PT,light rain
573,Lianran,24.9227,102.485,63.88,86,76,3.06,CN,broken clouds
574,Ust-Kulom,61.6864,53.6902,45.64,75,92,4.32,RU,overcast clouds
575,Yar-Sale,66.8333,70.8333,37.74,73,100,10.54,RU,overcast clouds
576,Qorveh,35.1664,47.8045,53.51,26,0,1.61,IR,clear sky
577,Alice Springs,-23.7,133.8833,74.75,46,0,4.61,AU,clear sky
578,Lahan,26.7296,86.4951,75.04,86,100,3.42,NP,overcast clouds
579,Terme,41.2092,36.9739,61.52,93,100,1.25,TR,light rain
580,Lebanon,36.2081,-86.2911,64.13,68,0,0.0,US,clear sky
581,Bafoulabe,13.8065,-10.8321,79.81,82,23,3.29,ML,few clouds
582,Kajaani,64.2273,27.7285,39.25,100,100,1.14,FI,overcast clouds
583,Changli,39.7042,119.1506,51.75,26,6,4.63,CN,clear sky
584,Limbe,4.0242,9.2149,75.65,87,100,1.54,CM,overcast clouds
585,Kavieng,-2.5744,150.7967,84.38,68,68,17.83,PG,broken clouds
586,Dire,12.2833,-10.9667,75.45,94,38,2.98,ML,scattered clouds
587,Muros,42.7762,-9.0603,54.09,95,2,3.51,ES,clear sky
588,Harper,4.375,-7.7169,76.33,92,100,7.56,LR,overcast clouds
589,Fatehabad,29.5167,75.45,74.84,70,0,5.12,IN,clear sky
590,Weligama,5.9667,80.4167,78.13,85,100,12.28,LK,overcast clouds
591,Tura,25.5198,90.2201,72.16,92,100,2.53,IN,overcast clouds
592,Geraldton,-28.7667,114.6,63.01,82,100,11.5,AU,overcast clouds
593,Ajaccio,42.0,8.9167,53.58,94,0,4.61,FR,clear sky
594,Sengiley,53.9622,48.7944,49.12,66,100,12.86,RU,overcast clouds
595,Saquarema,-22.92,-42.5103,67.89,90,100,6.17,BR,light rain
596,Ulundi,-28.3352,31.4162,61.41,83,100,2.73,ZA,overcast clouds
597,Shetpe,44.1667,52.1167,57.47,16,5,14.14,KZ,clear sky
598,Rach Gia,10.0167,105.0833,80.83,86,94,10.74,VN,overcast clouds
599,Calvia,39.5657,2.5062,66.67,82,4,4.0,ES,clear sky
600,Acari,-15.4311,-74.6158,63.99,69,24,3.76,PE,few clouds
601,Castrop-Rauxel,51.55,7.3167,55.74,82,100,1.01,DE,overcast clouds
602,Berbera,10.4396,45.0143,86.36,72,85,5.88,SO,overcast clouds
603,Baykit,61.67,96.37,29.12,84,99,5.26,RU,overcast clouds
604,Maldonado,-34.6667,-54.9167,52.23,93,0,6.38,UY,clear sky
605,Kuito,-12.3833,16.9333,61.05,59,5,3.29,AO,clear sky
606,Key Largo,25.0865,-80.4473,80.98,70,17,10.07,US,few clouds
607,Shingu,33.7333,135.9833,78.91,76,70,5.88,JP,broken clouds
608,Senanga,-16.1167,23.2667,68.38,25,0,4.41,ZM,clear sky
609,Itoman,26.1247,127.6694,86.02,70,20,9.22,JP,few clouds
610,Dolgoye,52.8,37.2167,44.96,91,100,13.44,RU,overcast clouds
611,Inhambane,-23.865,35.3833,74.44,76,75,6.33,MZ,broken clouds
612,Tabou,4.423,-7.3528,76.24,92,100,7.25,CI,overcast clouds
613,Kovdor,67.5662,30.4758,37.71,97,100,3.49,RU,overcast clouds
614,Santa Maria,-29.6842,-53.8069,56.5,67,0,5.75,BR,clear sky
615,Canora,51.6333,-102.4343,64.42,52,16,4.5,CA,few clouds
616,Belmonte,-15.8631,-38.8828,74.41,80,15,10.74,BR,few clouds
617,Byron Bay,-28.65,153.6167,70.95,54,100,8.08,AU,overcast clouds
618,Heihe,50.2441,127.4902,37.98,38,3,11.83,CN,clear sky
619,Lasa,46.6166,10.7002,55.04,49,13,1.88,IT,few clouds
620,Hervey Bay,-25.2986,152.8535,72.01,60,100,5.99,AU,overcast clouds
621,Umba,66.6871,34.3429,42.76,96,100,2.59,RU,overcast clouds
622,Rye,40.9807,-73.6837,58.21,86,100,13.8,US,mist
623,Piacabucu,-10.4056,-36.4344,73.72,79,7,8.41,BR,clear sky
624,Santiago De Cao,-7.9589,-79.2392,60.94,86,29,12.5,PE,scattered clouds
625,Dongargaon,20.9667,80.85,72.72,97,99,6.17,IN,overcast clouds
626,Isfana,39.8386,69.5306,45.16,39,0,2.44,KG,clear sky
627,Talnakh,69.4865,88.3972,33.21,99,100,1.41,RU,light snow
628,Vestmanna,62.1564,-7.1664,47.32,81,100,21.85,FO,light intensity drizzle rain
629,Ardakan,32.31,54.0175,72.64,21,0,6.76,IR,clear sky
630,Yongchang,30.0381,119.7317,61.0,82,100,7.05,CN,overcast clouds
631,Kintinku,-5.8833,35.2333,68.47,56,100,4.92,TZ,overcast clouds
632,Soloneshnoye,51.6544,84.3197,29.86,89,52,4.83,RU,broken clouds
633,Nakusp,50.2499,-117.8023,69.42,46,100,1.86,CA,overcast clouds
634,Buzdyak,54.5833,54.55,45.99,36,100,11.88,RU,overcast clouds
635,Conceicao Do Coite,-11.5639,-39.2828,68.59,77,4,11.03,BR,clear sky
636,Lake City,30.1897,-82.6393,64.85,72,0,3.44,US,clear sky
637,Pierre,44.3683,-100.351,62.55,59,90,6.98,US,light rain
638,Araouane,18.9048,-3.5265,91.27,13,0,4.38,ML,clear sky
639,Halifax,44.6453,-63.5724,56.21,91,100,6.13,CA,overcast clouds
640,Patitirion,39.15,23.8667,60.37,53,2,16.53,GR,clear sky
641,Den Helder,52.9599,4.7593,62.58,89,100,24.0,NL,overcast clouds
642,Ahmadpur East,29.1431,71.2598,79.66,39,2,8.3,PK,clear sky
643,Qurayyat,31.3318,37.3428,75.47,54,0,9.08,SA,clear sky
644,Kariba,-16.5167,28.8,76.26,37,0,4.32,ZW,clear sky
645,Los Llanos De Aridane,28.6585,-17.9182,77.13,59,0,5.99,ES,clear sky
646,Rancho Veloz,22.8806,-80.3917,74.91,69,18,6.69,CU,light rain
647,Ruwi,23.5996,58.5507,82.27,53,4,5.66,OM,clear sky
648,Valladolid,41.5833,-4.6667,59.29,61,0,2.84,ES,clear sky
649,Shache,38.4167,77.2406,51.71,29,37,4.27,CN,scattered clouds
650,Peque,7.0212,-75.9093,66.6,98,100,1.77,CO,overcast clouds
651,Kodinsk,58.6881,99.1844,26.73,85,31,4.54,RU,scattered clouds
652,Bara,10.3744,10.7288,73.11,93,89,5.28,NG,overcast clouds
653,Shellbrook,53.2168,-106.4011,61.05,48,6,8.72,CA,clear sky
654,Alekseyevskaya,50.2896,42.1845,55.81,89,1,6.62,RU,clear sky
655,Vao,-22.6667,167.4833,68.72,59,2,7.78,NC,clear sky
656,Villazon,-22.0866,-65.5942,49.66,37,4,4.79,BO,clear sky
657,Galle,6.0367,80.217,78.37,86,100,12.33,LK,overcast clouds
658,Kutum,14.2,24.6667,73.8,55,28,5.26,SD,scattered clouds
659,Lakes Entrance,-37.8811,147.981,58.15,62,100,18.95,AU,light rain
660,Yokadouma,3.5167,15.05,68.29,99,100,1.23,CM,overcast clouds
661,Guanambi,-14.2233,-42.7814,79.97,42,15,7.29,BR,few clouds
662,Danilovka,50.3557,44.1168,54.45,93,100,7.02,RU,overcast clouds
663,Senno,59.5336,33.9167,41.27,94,100,4.88,RU,overcast clouds
664,Grindavik,63.8424,-22.4338,43.27,81,100,23.02,IS,light intensity drizzle
665,Bucerias,20.75,-105.3333,82.38,78,100,6.91,MX,thunderstorm
666,Carupano,10.6678,-63.2585,79.02,86,80,3.71,VE,broken clouds
667,Shambu,9.5667,37.1,50.23,91,91,1.14,ET,light rain
668,Gizo,-8.103,156.8419,86.04,60,100,8.79,SB,overcast clouds
669,Monforte De Lemos,42.5216,-7.5142,67.57,54,0,2.21,ES,clear sky
670,Ola,59.5833,151.2833,30.15,78,100,9.22,RU,overcast clouds
671,Hanmer Springs,-42.5167,172.8167,39.45,84,94,6.08,NZ,overcast clouds
672,Okhotsk,59.3833,143.3,34.02,50,100,15.32,RU,overcast clouds
673,Willmar,45.1219,-95.0433,64.42,72,100,3.44,US,overcast clouds
674,Sumbe,-11.2061,13.8437,72.36,87,100,6.22,AO,overcast clouds
675,Port-Cartier,50.0334,-66.8654,46.74,94,100,4.07,CA,overcast clouds
